{"type": "FeatureCollection", "features": [{"type": "Feature", "geometry": {"type": "Point", "coordinates": [106.700711, 10.814969]}, "properties": {"name": "Qu\u00e1n \u0110\u1ea3o - C\u00e1 bi\u1ec3n n\u01b0\u1edbng", "address": "129 Phan Chu Trinh, Ph\u01b0\u1eddng 12", "id": null}}, {"type": "Feature", "geometry": {"type": "Point", "coordinates": [106.69145, 10.819577]}, "properties": {"name": "Bia \u0110\u1ee9c Paderborner", "address": "328 Ph\u1ea1m V\u0103n \u0110\u1ed3ng, Ph\u01b0\u1eddng 1", "id": null}}, {"type": "Feature", "geometry": {"type": "Point", "coordinates": [106.684549, 10.819943]}, "properties": {"name": "Cty CP Ngo\u1ea1i Th\u1ea5t Xanh v\u00e0 Xinh (NTX Outdoor Jsc.)", "address": "176 Nguy\u1ec5n Th\u00e1i S\u01a1n, Ph\u01b0\u1eddng 4", "id": null}}, {"type": "Feature", "geometry": {"type": "Point", "coordinates": [106.706299, 10.821508]}, "properties": {"name": "Karaoke Viva 2", "address": "500 N\u01a1 Trang Long, Ph\u01b0\u1eddng 13", "id": null}}, {"type": "Feature", "geometry": {"type": "Point", "coordinates": [106.684857, 10.802791]}, "properties": {"name": "Sometimes Venus Karaoke Born", "address": "106 Ph\u00f9ng V\u0103n Cung, Ph\u01b0\u1eddng 7", "id": null}}, {"type": "Feature", "geometry": {"type": "Point", "coordinates": [106.694394, 10.814729]}, "properties": {"name": "Tr\u0103ng Non Rooftop", "address": "302 Nguy\u1ec5n V\u0103n \u0110\u1eadu, Ph\u01b0\u1eddng 11", "id": null}}, {"type": "Feature", "geometry": {"type": "Point", "coordinates": [106.694924, 10.818099]}, "properties": {"name": "H\u1ebbm Bia Shanghai", "address": "367 Phan V\u0103n Tr\u1ecb, Ph\u01b0\u1eddng 11", "id": null}}, {"type": "Feature", "geometry": {"type": "Point", "coordinates": [106.697872, 10.814428]}, "properties": {"name": "H\u00e1t V\u1edbi Nhau 276", "address": "276 N\u01a1 Trang Long, Ph\u01b0\u1eddng 12", "id": null}}, {"type": "Feature", "geometry": {"type": "Point", "coordinates": [106.697192, 10.813499]}, "properties": {"name": "Qu\u00e1n \u1ed0c- L\u1ea9u- H\u1ea3i s\u1ea3n", "address": "169 N\u01a1 Trang Long, Ph\u01b0\u1eddng 12", "id": null}}, {"type": "Feature", "geometry": {"type": "Point", "coordinates": [106.696365, 10.820823]}, "properties": {"name": "Chiuuu - Beer & Cocktail", "address": "412 Ph\u1ea1m V\u0103n \u0110\u1ed3ng, Ph\u01b0\u1eddng 11", "id": null}}, {"type": "Feature", "geometry": {"type": "Point", "coordinates": [106.694843, 10.82103]}, "properties": {"name": "Qu\u00e1n Kh\u00e1nh H\u00e0o", "address": "395 Ph\u1ea1m V\u0103n \u0110\u1ed3ng, Ph\u01b0\u1eddng 11", "id": null}}, {"type": "Feature", "geometry": {"type": "Point", "coordinates": [106.693479, 10.820706]}, "properties": {"name": "Beer Ray", "address": "341 Ph\u1ea1m V\u0103n \u0110\u1ed3ng, Ph\u01b0\u1eddng 1", "id": null}}, {"type": "Feature", "geometry": {"type": "Point", "coordinates": [106.691849, 10.81962]}, "properties": {"name": "Samurai Team", "address": "336 Ph\u1ea1m V\u0103n \u0110\u1ed3ng, Ph\u01b0\u1eddng 1", "id": null}}, {"type": "Feature", "geometry": {"type": "Point", "coordinates": [106.693113, 10.820572]}, "properties": {"name": "BeerChat", "address": "335 Ph\u1ea1m V\u0103n \u0110\u1ed3ng, Ph\u01b0\u1eddng 1", "id": null}}, {"type": "Feature", "geometry": {"type": "Point", "coordinates": [106.695666, 10.821268]}, "properties": {"name": "Beer Garden Ng\u1ed9", "address": "417 Ph\u1ea1m V\u0103n \u0110\u1ed3ng, Ph\u01b0\u1eddng 11", "id": null}}, {"type": "Feature", "geometry": {"type": "Point", "coordinates": [106.691706, 10.819646]}, "properties": {"name": "The Cats", "address": "332 Ph\u1ea1m V\u0103n \u0110\u1ed3ng, Ph\u01b0\u1eddng 1", "id": null}}, {"type": "Feature", "geometry": {"type": "Point", "coordinates": [106.69347, 10.821369]}, "properties": {"name": "Karaoke B\u1ea3o Anh", "address": "5 \u0110\u01b0\u1eddng Tr\u1ea7n Qu\u1ed1c Tu\u1ea5n, Ph\u01b0\u1eddng 01", "id": null}}, {"type": "Feature", "geometry": {"type": "Point", "coordinates": [106.696656, 10.809202]}, "properties": {"name": "Bunbo hue kim huong118phan van tri", "address": "118 Phan V\u0103n Tr\u1ecb, Ph\u01b0\u1eddng 12", "id": null}}, {"type": "Feature", "geometry": {"type": "Point", "coordinates": [106.6893, 10.819025]}, "properties": {"name": "2TEN", "address": "290 Ph\u1ea1m V\u0103n \u0110\u1ed3ng, Ph\u01b0\u1eddng 1", "id": null}}, {"type": "Feature", "geometry": {"type": "Point", "coordinates": [106.689609, 10.819605]}, "properties": {"name": "FRIENDZONE FRUIT", "address": "271 Ph\u1ea1m V\u0103n \u0110\u1ed3ng, Ph\u01b0\u1eddng 1", "id": null}}]}